header: 
  seq: 0
  stamp: 
    secs: 1624875191
    nsecs: 558718920
  frame_id: "/world"
pose: 
  pose: 
    position: 
      x: 0.0626414404632
      y: -0.0114145588813
      z: 0.0
    orientation: 
      x: 0.0
      y: 0.0405619092502
      z: 0.0
      w: 0.999177027117
  covariance: [0.07868209584252406, -9.461082738964364e-19, 0.0, 0.0, 3.330677936045202e-14, 0.0, -9.461082738975269e-19, 0.07868209584252475, 0.0, 0.0, -1.9069085356217147e-12, 0.0, 0.0, 0.0, 1e-07, 0.0, 0.0, 0.0, 0.0, 0.0, 0.0, 1e-07, 0.0, 0.0, 3.3306779360448494e-14, -1.906908535621978e-12, 0.0, 0.0, 0.07868205381370827, 0.0, 0.0, 0.0, 0.0, 0.0, 0.0, 1e-07]
---
header: 
  seq: 1
  stamp: 
    secs: 1624875193
    nsecs: 318856001
  frame_id: "/world"
pose: 
  pose: 
    position: 
      x: 0.0277667589782
      y: -0.02601682998
      z: 0.0
    orientation: 
      x: 0.0
      y: 0.116883729185
      z: 0.0
      w: 0.993145605564
  covariance: [3.9857697567496766, -1.9086436829079788e-06, 0.0, 0.0, -0.001240613762362176, 0.0, -1.9086436829079516e-06, 3.985767469007555, 0.0, 0.0, 0.0007026569307809167, 0.0, 0.0, 0.0, 1e-07, 0.0, 0.0, 0.0, 0.0, 0.0, 0.0, 1e-07, 0.0, 0.0, -0.0012406137623621864, 0.0007026569307809231, 0.0, 0.0, 2.745309716392042, 0.0, 0.0, 0.0, 0.0, 0.0, 0.0, 1e-07]
---
header: 
  seq: 2
  stamp: 
    secs: 1624875196
    nsecs: 599162102
  frame_id: "/world"
pose: 
  pose: 
    position: 
      x: 0.0166163353051
      y: -0.0430530963954
      z: 0.0
    orientation: 
      x: -0.0
      y: -0.0822472404752
      z: -0.0
      w: 0.996611956297
  covariance: [2.648854370068479, -5.4919736476426895e-06, 0.0, 0.0, -0.00048189566741691197, 0.0, -5.491973647643477e-06, 2.648847894412179, 0.0, 0.0, 0.0002940932594437838, 0.0, 0.0, 0.0, 1e-07, 0.0, 0.0, 0.0, 0.0, 0.0, 0.0, 1e-07, 0.0, 0.0, -0.00048189566741691566, 0.0002940932594437862, 0.0, 0.0, 2.1038345230631976, 0.0, 0.0, 0.0, 0.0, 0.0, 0.0, 1e-07]
---
header: 
  seq: 3
  stamp: 
    secs: 1624875196
    nsecs: 679157019
  frame_id: "/world"
pose: 
  pose: 
    position: 
      x: 0.0185721548702
      y: -0.021561037511
      z: 0.0
    orientation: 
      x: 0.0
      y: 0.0301557821628
      z: 0.0
      w: 0.999545210985
  covariance: [2.2650572600435086, -6.206231117237778e-07, 0.0, 0.0, -5.1855607892080387e-05, 0.0, -6.206231117238479e-07, 2.265056535524967, 0.0, 0.0, 3.204631952791545e-05, 0.0, 0.0, 0.0, 1e-07, 0.0, 0.0, 0.0, 0.0, 0.0, 0.0, 1e-07, 0.0, 0.0, -5.185560789208069e-05, 3.204631952791566e-05, 0.0, 0.0, 2.205627128639379, 0.0, 0.0, 0.0, 0.0, 0.0, 0.0, 1e-07]
---
header: 
  seq: 4
  stamp: 
    secs: 1624875196
    nsecs: 759172916
  frame_id: "/world"
pose: 
  pose: 
    position: 
      x: 0.0177732846889
      y: -0.021611066444
      z: 0.0
    orientation: 
      x: -0.0
      y: -0.00465191474583
      z: -0.0
      w: 0.999989179786
  covariance: [2.970371492501345, -2.361407898433349e-07, 0.0, 0.0, -1.2170615535642942e-05, 0.0, -2.3614078984334695e-07, 2.970371223555147, 0.0, 0.0, 1.0536763116137051e-05, 0.0, 0.0, 0.0, 1e-07, 0.0, 0.0, 0.0, 0.0, 0.0, 0.0, 1e-07, 0.0, 0.0, -1.2170615535642988e-05, 1.0536763116137083e-05, 0.0, 0.0, 2.9516132984610235, 0.0, 0.0, 0.0, 0.0, 0.0, 0.0, 1e-07]
---
header: 
  seq: 5
  stamp: 
    secs: 1624875196
    nsecs: 839164019
  frame_id: "/world"
pose: 
  pose: 
    position: 
      x: -0.00310131463006
      y: 0.0211506595427
      z: 0.0
    orientation: 
      x: 0.0
      y: 0.0035474838215
      z: 0.0
      w: 0.999993707659
  covariance: [2.5812404954914494, -7.110686924094391e-08, 0.0, 0.0, -4.216770829268579e-06, 0.0, -7.110686924094516e-08, 2.5812404162307985, 0.0, 0.0, 3.0142217862990555e-06, 0.0, 0.0, 0.0, 1e-07, 0.0, 0.0, 0.0, 0.0, 0.0, 0.0, 1e-07, 0.0, 0.0, -4.216770829268589e-06, 3.0142217862990584e-06, 0.0, 0.0, 2.5755160780979995, 0.0, 0.0, 0.0, 0.0, 0.0, 0.0, 1e-07]
---
header: 
  seq: 6
  stamp: 
    secs: 1624875196
    nsecs: 919202089
  frame_id: "/world"
pose: 
  pose: 
    position: 
      x: 0.000477166316428
      y: 0.0384757898906
      z: 0.0
    orientation: 
      x: -0.0
      y: -0.00126263206941
      z: -0.0
      w: 0.99999920288
  covariance: [2.537205330000075, -2.527215897142597e-08, 0.0, 0.0, -1.7133958960150043e-06, 0.0, -2.5272158971426105e-08, 2.537205302204348, 0.0, 0.0, 7.931589233478379e-07, 0.0, 0.0, 0.0, 1e-07, 0.0, 0.0, 0.0, 0.0, 0.0, 0.0, 1e-07, 0.0, 0.0, -1.7133958960150049e-06, 7.931589233478382e-07, 0.0, 0.0, 2.5348276350127437, 0.0, 0.0, 0.0, 0.0, 0.0, 0.0, 1e-07]
---
header: 
  seq: 7
  stamp: 
    secs: 1624875196
    nsecs: 999176979
  frame_id: "/world"
pose: 
  pose: 
    position: 
      x: -0.00841003601336
      y: 0.0445356374802
      z: 0.0
    orientation: 
      x: 0.0
      y: 0.000264512627741
      z: 0.0
      w: 0.999999965017
  covariance: [1.7166537101529034, -4.74156415987445e-09, 0.0, 0.0, -4.6331904613388105e-07, 0.0, -4.741564159874444e-09, 1.7166537049789405, 0.0, 0.0, 2.2821098956012866e-07, 0.0, 0.0, 0.0, 1e-07, 0.0, 0.0, 0.0, 0.0, 0.0, 0.0, 1e-07, 0.0, 0.0, -4.633190461338812e-07, 2.28210989560129e-07, 0.0, 0.0, 1.716099172882871, 0.0, 0.0, 0.0, 0.0, 0.0, 0.0, 1e-07]
---
header: 
  seq: 8
  stamp: 
    secs: 1624875197
    nsecs:  79178095
  frame_id: "/world"
pose: 
  pose: 
    position: 
      x: -0.0106598057741
      y: -0.000272719281852
      z: 0.0
    orientation: 
      x: -0.0
      y: -0.00109045418478
      z: -0.0
      w: 0.999999405455
  covariance: [2.97412162957741, -9.030197073518596e-09, 0.0, 0.0, -6.52621086885288e-07, 0.0, -9.030197073518579e-09, 2.974121619781132, 0.0, 0.0, 5.009301948222319e-07, 0.0, 0.0, 0.0, 1e-07, 0.0, 0.0, 0.0, 0.0, 0.0, 0.0, 1e-07, 0.0, 0.0, -6.52621086885288e-07, 5.009301948222322e-07, 0.0, 0.0, 2.97269104584511, 0.0, 0.0, 0.0, 0.0, 0.0, 0.0, 1e-07]
---
header: 
  seq: 9
  stamp: 
    secs: 1624875197
    nsecs: 159200907
  frame_id: "/world"
pose: 
  pose: 
    position: 
      x: -0.0110024714484
      y: -0.000454368531155
      z: 0.0
    orientation: 
      x: 0.0
      y: 0.000391571405235
      z: 0.0
      w: 0.999999923336
  covariance: [3.2019225668767475, -3.150000231885707e-08, 0.0, 0.0, -5.4152226047997e-07, 0.0, -3.150000231885696e-08, 3.201922537539638, 0.0, 0.0, 5.376111404939688e-05, 0.0, 0.0, 0.0, 1e-07, 0.0, 0.0, 0.0, 0.0, 0.0, 0.0, 1e-07, 0.0, 0.0, -5.415222604799701e-07, 5.3761114049396896e-05, 0.0, 0.0, 3.1956213759867746, 0.0, 0.0, 0.0, 0.0, 0.0, 0.0, 1e-07]
---
header: 
  seq: 10
  stamp: 
    secs: 1624875197
    nsecs: 239206076
  frame_id: "/world"
pose: 
  pose: 
    position: 
      x: -0.0154062289642
      y: 0.00489890487622
      z: 0.0
    orientation: 
      x: 0.0
      y: 9.93034279586e-05
      z: 0.0
      w: 0.999999995069
  covariance: [2.785900300607663, -2.0825685832678915e-08, 0.0, 0.0, -1.1811200678641733e-05, 0.0, -2.0825685832678872e-08, 2.785900289763596, 0.0, 0.0, 3.514303452296117e-05, 0.0, 0.0, 0.0, 1e-07, 0.0, 0.0, 0.0, 0.0, 0.0, 0.0, 1e-07, 0.0, 0.0, -1.1811200678641733e-05, 3.514303452296115e-05, 0.0, 0.0, 2.7815324820862957, 0.0, 0.0, 0.0, 0.0, 0.0, 0.0, 1e-07]
---
header: 
  seq: 11
  stamp: 
    secs: 1624875197
    nsecs: 319202900
  frame_id: "/world"
pose: 
  pose: 
    position: 
      x: -0.0154715009505
      y: 0.0045443071716
      z: 0.0
    orientation: 
      x: 0.0
      y: 0.000283981783532
      z: 0.0
      w: 0.999999959677
  covariance: [2.4808350941025124, -1.2165864201800308e-08, 0.0, 0.0, -7.225990872024654e-06, 0.0, -1.216586420180026e-08, 2.4808350909881196, 0.0, 0.0, 1.2033121906349419e-05, 0.0, 0.0, 0.0, 1e-07, 0.0, 0.0, 0.0, 0.0, 0.0, 0.0, 1e-07, 0.0, 0.0, -7.225990872024646e-06, 1.203312190634942e-05, 0.0, 0.0, 2.478277299746955, 0.0, 0.0, 0.0, 0.0, 0.0, 0.0, 1e-07]
---
header: 
  seq: 12
  stamp: 
    secs: 1624875197
    nsecs: 399205923
  frame_id: "/world"
pose: 
  pose: 
    position: 
      x: -0.0156086820159
      y: 0.00447412807491
      z: 0.0
    orientation: 
      x: 0.0
      y: 0.000243722180649
      z: 0.0
      w: 0.9999999703
  covariance: [2.998512383676597, -9.051111680390655e-09, 0.0, 0.0, -3.5665094589854947e-06, 0.0, -9.051111680390632e-09, 2.998512382287478, 0.0, 0.0, 4.628005164744784e-06, 0.0, 0.0, 0.0, 1e-07, 0.0, 0.0, 0.0, 0.0, 0.0, 0.0, 1e-07, 0.0, 0.0, -3.566509458985493e-06, 4.628005164744786e-06, 0.0, 0.0, 2.996544542977281, 0.0, 0.0, 0.0, 0.0, 0.0, 0.0, 1e-07]
---
header: 
  seq: 13
  stamp: 
    secs: 1624875197
    nsecs: 479234934
  frame_id: "/world"
pose: 
  pose: 
    position: 
      x: -0.00753809395827
      y: -0.013918683117
      z: 0.0
    orientation: 
      x: 0.0
      y: 7.98221087963e-05
      z: 0.0
      w: 0.999999996814
  covariance: [3.0802457190027672, -1.5789072296466504e-08, 0.0, 0.0, -9.523338022074358e-06, 0.0, -1.578907229646647e-08, 3.0802457174258118, 0.0, 0.0, 3.35105621493877e-06, 0.0, 0.0, 0.0, 1e-07, 0.0, 0.0, 0.0, 0.0, 0.0, 0.0, 1e-07, 0.0, 0.0, -9.523338022074358e-06, 3.3510562149387676e-06, 0.0, 0.0, 3.0764571790267463, 0.0, 0.0, 0.0, 0.0, 0.0, 0.0, 1e-07]
---
header: 
  seq: 14
  stamp: 
    secs: 1624875197
    nsecs: 559230089
  frame_id: "/world"
pose: 
  pose: 
    position: 
      x: -0.00865124083866
      y: -0.0117786464916
      z: 0.0
    orientation: 
      x: 0.0
      y: 0.000113053577061
      z: 0.0
      w: 0.999999993609
  covariance: [2.9750188485756457, -6.46668939815125e-09, 0.0, 0.0, -3.5521739086318263e-06, 0.0, -6.466689398151236e-09, 2.975018847913869, 0.0, 0.0, 9.573491194190574e-07, 0.0, 0.0, 0.0, 1e-07, 0.0, 0.0, 0.0, 0.0, 0.0, 0.0, 1e-07, 0.0, 0.0, -3.5521739086318254e-06, 9.573491194190576e-07, 0.0, 0.0, 2.9733936909736176, 0.0, 0.0, 0.0, 0.0, 0.0, 0.0, 1e-07]
---
header: 
  seq: 15
  stamp: 
    secs: 1624875197
    nsecs: 639235020
  frame_id: "/world"
pose: 
  pose: 
    position: 
      x: 0.0122449486726
      y: 0.0206285034035
      z: 0.0
    orientation: 
      x: -0.0
      y: -0.00165594184217
      z: -0.0
      w: 0.999998628927
  covariance: [2.497795840650686, -1.5216582773403297e-09, 0.0, 0.0, -6.322098562405417e-07, 0.0, -1.521658277340327e-09, 2.497795840489801, 0.0, 0.0, 1.5909211054305536e-07, 0.0, 0.0, 0.0, 1e-07, 0.0, 0.0, 0.0, 0.0, 0.0, 0.0, 1e-07, 0.0, 0.0, -6.322098562405412e-07, 1.5909211054305533e-07, 0.0, 0.0, 2.497395812876691, 0.0, 0.0, 0.0, 0.0, 0.0, 0.0, 1e-07]
---
header: 
  seq: 16
  stamp: 
    secs: 1624875197
    nsecs: 719242096
  frame_id: "/world"
pose: 
  pose: 
    position: 
      x: 0.0121887815088
      y: 0.0205940943095
      z: 0.0
    orientation: 
      x: 0.0
      y: 0.000218444049936
      z: 0.0
      w: 0.999999976141
  covariance: [3.2431991179042714, -1.5322275059058665e-09, 0.0, 0.0, -3.968414989115551e-07, 0.0, -1.5322275059058626e-09, 3.2431991177342256, 0.0, 0.0, 7.016327791980096e-08, 0.0, 0.0, 0.0, 1e-07, 0.0, 0.0, 0.0, 0.0, 0.0, 0.0, 1e-07, 0.0, 0.0, -3.96841498911555e-07, 7.016327791980096e-08, 0.0, 0.0, 3.2427560585507944, 0.0, 0.0, 0.0, 0.0, 0.0, 0.0, 1e-07]
---
header: 
  seq: 17
  stamp: 
    secs: 1624875197
    nsecs: 799248934
  frame_id: "/world"
pose: 
  pose: 
    position: 
      x: 0.016367676523
      y: 0.0220660175989
      z: 0.0
    orientation: 
      x: -0.0
      y: -6.22874647356e-05
      z: -0.0
      w: 0.99999999806
  covariance: [2.889313343455879, -5.444253147615977e-09, 0.0, 0.0, -1.5612749740107182e-06, 0.0, -5.444253147615965e-09, 2.8893133428248454, 0.0, 0.0, 1.7149417702318355e-07, 0.0, 0.0, 0.0, 1e-07, 0.0, 0.0, 0.0, 0.0, 0.0, 0.0, 1e-07, 0.0, 0.0, -1.561274974010718e-06, 1.7149417702318358e-07, 0.0, 0.0, 2.8875144824557153, 0.0, 0.0, 0.0, 0.0, 0.0, 0.0, 1e-07]
---
header: 
  seq: 18
  stamp: 
    secs: 1624875197
    nsecs: 879255056
  frame_id: "/world"
pose: 
  pose: 
    position: 
      x: 0.0161051003639
      y: 0.0218814048318
      z: 0.0
    orientation: 
      x: 0.0
      y: 0.000196843413986
      z: 0.0
      w: 0.999999980626
  covariance: [3.4595888930318353, -7.92738684852753e-09, 0.0, 0.0, -1.6410666325730565e-06, 0.0, -7.927386848527507e-09, 3.4595888920979974, 0.0, 0.0, 1.3307795397788244e-06, 0.0, 0.0, 0.0, 1e-07, 0.0, 0.0, 0.0, 0.0, 0.0, 0.0, 1e-07, 0.0, 0.0, -1.6410666325730558e-06, 1.3307795397788252e-06, 0.0, 0.0, 3.4568423557996124, 0.0, 0.0, 0.0, 0.0, 0.0, 0.0, 1e-07]
---
header: 
  seq: 19
  stamp: 
    secs: 1624875197
    nsecs: 959276915
  frame_id: "/world"
pose: 
  pose: 
    position: 
      x: 0.0130993629182
      y: 0.0250284135089
      z: 0.0
    orientation: 
      x: 0.0
      y: 0.00066997042759
      z: 0.0
      w: 0.99999977557
  covariance: [3.912394148645007, -6.332127865566567e-09, 0.0, 0.0, -8.786893683355767e-07, 0.0, -6.332127865566549e-09, 3.9123941478991178, 0.0, 0.0, 1.1393342997112697e-06, 0.0, 0.0, 0.0, 1e-07, 0.0, 0.0, 0.0, 0.0, 0.0, 0.0, 1e-07, 0.0, 0.0, -8.786893683355764e-07, 1.1393342997112695e-06, 0.0, 0.0, 3.91012073471249, 0.0, 0.0, 0.0, 0.0, 0.0, 0.0, 1e-07]
---
header: 
  seq: 20
  stamp: 
    secs: 1624875198
    nsecs:  39307117
  frame_id: "/world"
pose: 
  pose: 
    position: 
      x: 0.00833075308554
      y: 0.0317229185638
      z: 0.0
    orientation: 
      x: 0.0
      y: 0.00027808093495
      z: 0.0
      w: 0.999999961335
  covariance: [5.01015990711351, -9.080446634843297e-09, 0.0, 0.0, -6.972112514446612e-07, 0.0, -9.080446634843274e-09, 5.010159906045985, 0.0, 0.0, 1.1130939871191168e-06, 0.0, 0.0, 0.0, 1e-07, 0.0, 0.0, 0.0, 0.0, 0.0, 0.0, 1e-07, 0.0, 0.0, -6.97211251444661e-07, 1.1130939871191164e-06, 0.0, 0.0, 5.00671884952045, 0.0, 0.0, 0.0, 0.0, 0.0, 0.0, 1e-07]
---
header: 
  seq: 21
  stamp: 
    secs: 1624875198
    nsecs: 119277000
  frame_id: "/world"
pose: 
  pose: 
    position: 
      x: 0.00823993144951
      y: 0.0316700863355
      z: 0.0
    orientation: 
      x: -0.0
      y: -5.58432567746e-05
      z: -0.0
      w: 0.999999998441
  covariance: [5.004386410861576, -6.851749157573967e-09, 0.0, 0.0, -3.0935299231502707e-07, 0.0, -6.85174915757395e-09, 5.004386410057005, 0.0, 0.0, 5.81077222483251e-07, 0.0, 0.0, 0.0, 1e-07, 0.0, 0.0, 0.0, 0.0, 0.0, 0.0, 1e-07, 0.0, 0.0, -3.0935299231502707e-07, 5.81077222483251e-07, 0.0, 0.0, 5.001676088404593, 0.0, 0.0, 0.0, 0.0, 0.0, 0.0, 1e-07]
---
header: 
  seq: 22
  stamp: 
    secs: 1624875198
    nsecs: 199289083
  frame_id: "/world"
pose: 
  pose: 
    position: 
      x: 0.00827987548645
      y: 0.031693332903
      z: 0.0
    orientation: 
      x: 0.0
      y: 8.51195637217e-05
      z: 0.0
      w: 0.999999996377
  covariance: [6.66802314523911, -1.569710539431659e-09, 0.0, 0.0, -5.539167690567263e-07, 0.0, -1.569710539431655e-09, 6.668023145054946, 0.0, 0.0, 1.0173250208534339e-06, 0.0, 0.0, 0.0, 1e-07, 0.0, 0.0, 0.0, 0.0, 0.0, 0.0, 1e-07, 0.0, 0.0, -5.539167690567263e-07, 1.017325020853434e-06, 0.0, 0.0, 6.667412684419782, 0.0, 0.0, 0.0, 0.0, 0.0, 0.0, 1e-07]
---
header: 
  seq: 23
  stamp: 
    secs: 1624875198
    nsecs: 279292107
  frame_id: "/world"
pose: 
  pose: 
    position: 
      x: -0.00601672476321
      y: 0.0597962557111
      z: 0.0
    orientation: 
      x: -0.0
      y: -0.000182427478844
      z: -0.0
      w: 0.99999998336
  covariance: [5.773828017096222, -1.1100559383853702e-09, 0.0, 0.0, 2.10490979463681e-07, 0.0, -1.1100559383853677e-09, 5.7738280169660925, 0.0, 0.0, -3.4896775196976567e-07, 0.0, 0.0, 0.0, 1e-07, 0.0, 0.0, 0.0, 0.0, 0.0, 0.0, 1e-07, 0.0, 0.0, 2.1049097946368103e-07, -3.4896775196976546e-07, 0.0, 0.0, 5.773379186049659, 0.0, 0.0, 0.0, 0.0, 0.0, 0.0, 1e-07]
---
header: 
  seq: 24
  stamp: 
    secs: 1624875198
    nsecs: 359307051
  frame_id: "/world"
pose: 
  pose: 
    position: 
      x: -0.00596939635664
      y: 0.0546731450517
      z: 0.0
    orientation: 
      x: 0.0
      y: 0.000179420412757
      z: 0.0
      w: 0.999999983904
  covariance: [4.870448395193584, -2.715895373187792e-11, 0.0, 0.0, -9.458401783861916e-07, 0.0, -2.715895373187782e-11, 4.870448395190856, 0.0, 0.0, 7.909643535115203e-07, 0.0, 0.0, 0.0, 1e-07, 0.0, 0.0, 0.0, 0.0, 0.0, 0.0, 1e-07, 0.0, 0.0, -9.458401783861919e-07, 7.909643535115208e-07, 0.0, 0.0, 4.870414096763582, 0.0, 0.0, 0.0, 0.0, 0.0, 0.0, 1e-07]
---
header: 
  seq: 25
  stamp: 
    secs: 1624875198
    nsecs: 439341068
  frame_id: "/world"
pose: 
  pose: 
    position: 
      x: -0.00402204831515
      y: 0.0564710529867
      z: 0.0
    orientation: 
      x: 0.0
      y: 7.87603672793e-05
      z: 0.0
      w: 0.999999996898
  covariance: [4.419267489978145, -1.1171516780614223e-09, 0.0, 0.0, -2.0239861397417157e-06, 0.0, -1.1171516780614192e-09, 4.419267489849727, 0.0, 0.0, 2.060603675568863e-06, 0.0, 0.0, 0.0, 1e-07, 0.0, 0.0, 0.0, 0.0, 0.0, 0.0, 1e-07, 0.0, 0.0, -2.023986139741715e-06, 2.0606036755688636e-06, 0.0, 0.0, 4.418661799397737, 0.0, 0.0, 0.0, 0.0, 0.0, 0.0, 1e-07]
---
header: 
  seq: 26
  stamp: 
    secs: 1624875198
    nsecs: 519325018
  frame_id: "/world"
pose: 
  pose: 
    position: 
      x: -0.00539573052245
      y: 0.0492981006915
      z: 0.0
    orientation: 
      x: 0.0
      y: 1.23684445111e-05
      z: 0.0
      w: 0.999999999924
  covariance: [5.51978421669653, -3.180136437192512e-10, 0.0, 0.0, -6.154035046796035e-07, 0.0, -3.180136437192502e-10, 5.5197842166599465, 0.0, 0.0, 6.139961769247182e-07, 0.0, 0.0, 0.0, 1e-07, 0.0, 0.0, 0.0, 0.0, 0.0, 0.0, 1e-07, 0.0, 0.0, -6.15403504679603e-07, 6.139961769247183e-07, 0.0, 0.0, 5.5196107542858615, 0.0, 0.0, 0.0, 0.0, 0.0, 0.0, 1e-07]
---
header: 
  seq: 27
  stamp: 
    secs: 1624875198
    nsecs: 599320889
  frame_id: "/world"
pose: 
  pose: 
    position: 
      x: -0.00353864683181
      y: 0.0508350238058
      z: 0.0
    orientation: 
      x: -0.0
      y: -1.93948657842e-05
      z: -0.0
      w: 0.999999999812
  covariance: [5.478221361043458, -1.0789933998159499e-09, 0.0, 0.0, -1.5158996146087268e-06, 0.0, -1.0789933998159466e-09, 5.478221360919302, 0.0, 0.0, 8.868260064139848e-07, 0.0, 0.0, 0.0, 1e-07, 0.0, 0.0, 0.0, 0.0, 0.0, 0.0, 1e-07, 0.0, 0.0, -1.5158996146087268e-06, 8.868260064139852e-07, 0.0, 0.0, 5.477634604668419, 0.0, 0.0, 0.0, 0.0, 0.0, 0.0, 1e-07]
---
header: 
  seq: 28
  stamp: 
    secs: 1624875198
    nsecs: 679327011
  frame_id: "/world"
pose: 
  pose: 
    position: 
      x: -0.00218483209211
      y: 0.0511190010454
      z: 0.0
    orientation: 
      x: 0.0
      y: 3.32196708283e-05
      z: 0.0
      w: 0.999999999448
  covariance: [5.467158230533972, -1.661966266679308e-09, 0.0, 0.0, -1.8198609214126284e-06, 0.0, -1.661966266679303e-09, 5.467158230340817, 0.0, 0.0, 8.615414251639713e-07, 0.0, 0.0, 0.0, 1e-07, 0.0, 0.0, 0.0, 0.0, 0.0, 0.0, 1e-07, 0.0, 0.0, -1.8198609214126289e-06, 8.615414251639717e-07, 0.0, 0.0, 5.4662322915130686, 0.0, 0.0, 0.0, 0.0, 0.0, 0.0, 1e-07]
---
header: 
  seq: 29
  stamp: 
    secs: 1624875198
    nsecs: 759337902
  frame_id: "/world"
pose: 
  pose: 
    position: 
      x: -0.00152390603179
      y: 0.0512636655905
      z: 0.0
    orientation: 
      x: 0.0
      y: 7.71127429373e-06
      z: 0.0
      w: 0.99999999997
  covariance: [5.8648786261082435, -2.331664130147377e-09, 0.0, 0.0, -2.3820189290707838e-06, 0.0, -2.3316641301473703e-09, 5.86487862583418, 0.0, 0.0, 8.776682654593583e-07, 0.0, 0.0, 0.0, 1e-07, 0.0, 0.0, 0.0, 0.0, 0.0, 0.0, 1e-07, 0.0, 0.0, -2.3820189290707833e-06, 8.776682654593584e-07, 0.0, 0.0, 5.863543396083182, 0.0, 0.0, 0.0, 0.0, 0.0, 0.0, 1e-07]
---
header: 
  seq: 30
  stamp: 
    secs: 1624875198
    nsecs: 839340925
  frame_id: "/world"
pose: 
  pose: 
    position: 
      x: 0.0011554025041
      y: 0.0530192721025
      z: 0.0
    orientation: 
      x: 0.0
      y: 0.000139748276753
      z: 0.0
      w: 0.999999990235
  covariance: [7.044799202883239, -8.478551110188377e-09, 0.0, 0.0, -5.012356389703555e-06, 0.0, -8.478551110188356e-09, 7.04479920186819, 0.0, 0.0, 1.4697270129322411e-06, 0.0, 0.0, 0.0, 1e-07, 0.0, 0.0, 0.0, 0.0, 0.0, 0.0, 1e-07, 0.0, 0.0, -5.012356389703555e-06, 1.469727012932241e-06, 0.0, 0.0, 7.039731729255961, 0.0, 0.0, 0.0, 0.0, 0.0, 0.0, 1e-07]
---
header: 
  seq: 31
  stamp: 
    secs: 1624875198
    nsecs: 919356108
  frame_id: "/world"
pose: 
  pose: 
    position: 
      x: 0.00269970605271
      y: 0.0535692293035
      z: 0.0
    orientation: 
      x: 0.0
      y: 8.12446361621e-05
      z: 0.0
      w: 0.9999999967
  covariance: [5.865526536324696, -4.009301911530781e-09, 0.0, 0.0, -1.788656659783739e-06, 0.0, -4.009301911530773e-09, 5.865526535843565, 0.0, 0.0, 6.326158745551525e-07, 0.0, 0.0, 0.0, 1e-07, 0.0, 0.0, 0.0, 0.0, 0.0, 0.0, 1e-07, 0.0, 0.0, -1.7886566597837392e-06, 6.326158745551528e-07, 0.0, 0.0, 5.863097758433728, 0.0, 0.0, 0.0, 0.0, 0.0, 0.0, 1e-07]
---
header: 
  seq: 32
  stamp: 
    secs: 1624875198
    nsecs: 999368906
  frame_id: "/world"
pose: 
  pose: 
    position: 
      x: 0.000421112315937
      y: 0.050847345662
      z: 0.0
    orientation: 
      x: 0.0
      y: 0.000191866996085
      z: 0.0
      w: 0.999999981594
  covariance: [5.573063470694434, -5.9085955978354e-09, 0.0, 0.0, -1.2104428003757742e-06, 0.0, -5.908595597835388e-09, 5.5730634699821735, 0.0, 0.0, 2.8792081789548466e-07, 0.0, 0.0, 0.0, 1e-07, 0.0, 0.0, 0.0, 0.0, 0.0, 0.0, 1e-07, 0.0, 0.0, -1.2104428003757736e-06, 2.879208178954846e-07, 0.0, 0.0, 5.569342875920074, 0.0, 0.0, 0.0, 0.0, 0.0, 0.0, 1e-07]
---
header: 
  seq: 33
  stamp: 
    secs: 1624875199
    nsecs:  79366922
  frame_id: "/world"
pose: 
  pose: 
    position: 
      x: -0.00156417319524
      y: 0.0410298336757
      z: 0.0
    orientation: 
      x: 0.0
      y: 0.000130407421243
      z: 0.0
      w: 0.999999991497
  covariance: [7.571954289010189, -4.237598046875895e-09, 0.0, 0.0, -7.460709969432444e-07, 0.0, -4.237598046875886e-09, 7.571954288499087, 0.0, 0.0, 1.2687838593861394e-07, 0.0, 0.0, 0.0, 1e-07, 0.0, 0.0, 0.0, 0.0, 0.0, 0.0, 1e-07, 0.0, 0.0, -7.460709969432439e-07, 1.2687838593861388e-07, 0.0, 0.0, 7.569264328726531, 0.0, 0.0, 0.0, 0.0, 0.0, 0.0, 1e-07]
---
header: 
  seq: 34
  stamp: 
    secs: 1624875199
    nsecs: 159377098
  frame_id: "/world"
pose: 
  pose: 
    position: 
      x: -0.00122771819987
      y: 0.0396489609107
      z: 0.0
    orientation: 
      x: 0.0
      y: 0.000123348167764
      z: 0.0
      w: 0.999999992393
  covariance: [6.473580227328412, -5.363980208289023e-09, 0.0, 0.0, -2.0225825376281164e-06, 0.0, -5.363980208289009e-09, 6.473580226679866, 0.0, 0.0, 1.437545984320914e-06, 0.0, 0.0, 0.0, 1e-07, 0.0, 0.0, 0.0, 0.0, 0.0, 0.0, 1e-07, 0.0, 0.0, -2.0225825376281156e-06, 1.4375459843209138e-06, 0.0, 0.0, 6.470020128622338, 0.0, 0.0, 0.0, 0.0, 0.0, 0.0, 1e-07]
---
header: 
  seq: 35
  stamp: 
    secs: 1624875199
    nsecs: 239401102
  frame_id: "/world"
pose: 
  pose: 
    position: 
      x: 0.0051781728797
      y: 0.0351760222334
      z: 0.0
    orientation: 
      x: 0.0
      y: 0.000100643935232
      z: 0.0
      w: 0.999999994935
  covariance: [7.2935232724597325, -5.909388020211995e-09, 0.0, 0.0, -4.024387795638281e-06, 0.0, -5.90938802021198e-09, 7.29352327174132, 0.0, 0.0, 2.0485951522887395e-06, 0.0, 0.0, 0.0, 1e-07, 0.0, 0.0, 0.0, 0.0, 0.0, 0.0, 1e-07, 0.0, 0.0, -4.02438779563828e-06, 2.0485951522887382e-06, 0.0, 0.0, 7.289493575011101, 0.0, 0.0, 0.0, 0.0, 0.0, 0.0, 1e-07]
---
header: 
  seq: 36
  stamp: 
    secs: 1624875199
    nsecs: 319385052
  frame_id: "/world"
pose: 
  pose: 
    position: 
      x: 0.0103827542099
      y: 0.00999221418783
      z: 0.0
    orientation: 
      x: 0.0
      y: 0.0003627373181
      z: 0.0
      w: 0.999999934211
  covariance: [8.421403995211696, -1.2500644469310046e-08, 0.0, 0.0, -8.238106675534144e-06, 0.0, -1.2500644469310014e-08, 8.421403993664072, 0.0, 0.0, 3.0276717194640595e-06, 0.0, 0.0, 0.0, 1e-07, 0.0, 0.0, 0.0, 0.0, 0.0, 0.0, 1e-07, 0.0, 0.0, -8.238106675534142e-06, 3.0276717194640574e-06, 0.0, 0.0, 8.412570672956345, 0.0, 0.0, 0.0, 0.0, 0.0, 0.0, 1e-07]
---
header: 
  seq: 37
  stamp: 
    secs: 1624875199
    nsecs: 399395943
  frame_id: "/world"
pose: 
  pose: 
    position: 
      x: 0.0105383052281
      y: 0.0100450272921
      z: 0.0
    orientation: 
      x: 0.0
      y: 0.000656240017072
      z: 0.0
      w: 0.999999784674
  covariance: [10.059449134368599, -2.055039118497138e-08, 0.0, 0.0, -1.8867792152113142e-05, 0.0, -2.0550391184971324e-08, 10.059449131755892, 0.0, 0.0, 4.502900959104725e-06, 0.0, 0.0, 0.0, 1e-07, 0.0, 0.0, 0.0, 0.0, 0.0, 0.0, 1e-07, 0.0, 0.0, -1.886779215211314e-05, 4.502900959104724e-06, 0.0, 0.0, 10.044621476619097, 0.0, 0.0, 0.0, 0.0, 0.0, 0.0, 1e-07]
---
header: 
  seq: 38
  stamp: 
    secs: 1624875199
    nsecs: 479382038
  frame_id: "/world"
pose: 
  pose: 
    position: 
      x: 0.0106460562493
      y: 0.0099990778026
      z: 0.0
    orientation: 
      x: 0.0
      y: 0.000497412762367
      z: 0.0
      w: 0.99999987629
  covariance: [10.947172175722772, -1.9727848714141727e-08, 0.0, 0.0, -2.1405640273161004e-05, 0.0, -1.9727848714141674e-08, 10.947172173138343, 0.0, 0.0, 4.8710773357471715e-06, 0.0, 0.0, 0.0, 1e-07, 0.0, 0.0, 0.0, 0.0, 0.0, 0.0, 1e-07, 0.0, 0.0, -2.1405640273161007e-05, 4.8710773357471715e-06, 0.0, 0.0, 10.932711711383535, 0.0, 0.0, 0.0, 0.0, 0.0, 0.0, 1e-07]
---
header: 
  seq: 39
  stamp: 
    secs: 1624875199
    nsecs: 559417963
  frame_id: "/world"
pose: 
  pose: 
    position: 
      x: 0.0183208528313
      y: 0.00821377788867
      z: 0.0
    orientation: 
      x: 0.0
      y: 3.29001507659e-05
      z: 0.0
      w: 0.999999999459
  covariance: [11.420217134486125, -3.418769972795095e-08, 0.0, 0.0, -3.163393196271123e-05, 0.0, -3.418769972795087e-08, 11.420217129744085, 0.0, 0.0, 7.82972515259146e-06, 0.0, 0.0, 0.0, 1e-07, 0.0, 0.0, 0.0, 0.0, 0.0, 0.0, 1e-07, 0.0, 0.0, -3.163393196271123e-05, 7.82972515259146e-06, 0.0, 0.0, 11.394160540528814, 0.0, 0.0, 0.0, 0.0, 0.0, 0.0, 1e-07]
---
header: 
  seq: 40
  stamp: 
    secs: 1624875199
    nsecs: 639408112
  frame_id: "/world"
pose: 
  pose: 
    position: 
      x: -0.000715318423737
      y: 0.00496986031106
      z: 0.0
    orientation: 
      x: -0.0
      y: -2.2172795399e-05
      z: -0.0
      w: 0.999999999754
  covariance: [8.114031492796547, -2.1333618529755705e-08, 0.0, 0.0, -1.4699975136932473e-05, 0.0, -2.1333618529755646e-08, 8.114031489771032, 0.0, 0.0, 7.256197278731696e-06, 0.0, 0.0, 0.0, 1e-07, 0.0, 0.0, 0.0, 0.0, 0.0, 0.0, 1e-07, 0.0, 0.0, -1.4699975136932478e-05, 7.256197278731695e-06, 0.0, 0.0, 8.09735712011555, 0.0, 0.0, 0.0, 0.0, 0.0, 0.0, 1e-07]
---
header: 
  seq: 41
  stamp: 
    secs: 1624875199
    nsecs: 719436884
  frame_id: "/world"
pose: 
  pose: 
    position: 
      x: -0.00140749099762
      y: 0.00484300107616
      z: 0.0
    orientation: 
      x: -0.0
      y: -0.000116152639797
      z: -0.0
      w: 0.999999993254
  covariance: [8.805861136832347, -2.794979980724563e-08, 0.0, 0.0, -1.3585168096472849e-05, 0.0, -2.7949799807245557e-08, 8.80586113282478, 0.0, 0.0, 1.2441321253646953e-05, 0.0, 0.0, 0.0, 1e-07, 0.0, 0.0, 0.0, 0.0, 0.0, 0.0, 1e-07, 0.0, 0.0, -1.3585168096472852e-05, 1.2441321253646958e-05, 0.0, 0.0, 8.783403422518505, 0.0, 0.0, 0.0, 0.0, 0.0, 0.0, 1e-07]
---
header: 
  seq: 42
  stamp: 
    secs: 1624875199
    nsecs: 799429893
  frame_id: "/world"
pose: 
  pose: 
    position: 
      x: -0.00208705541652
      y: 0.0051879453949
      z: 0.0
    orientation: 
      x: 0.0
      y: 0.000305811394084
      z: 0.0
      w: 0.99999995324
  covariance: [9.11153103833801, -3.017494058291259e-08, 0.0, 0.0, -1.3293412437218361e-05, 0.0, -3.0174940582912515e-08, 9.111531033987271, 0.0, 0.0, 1.1866143304580043e-05, 0.0, 0.0, 0.0, 1e-07, 0.0, 0.0, 0.0, 0.0, 0.0, 0.0, 1e-07, 0.0, 0.0, -1.3293412437218363e-05, 1.1866143304580048e-05, 0.0, 0.0, 9.086726718793535, 0.0, 0.0, 0.0, 0.0, 0.0, 0.0, 1e-07]
---
header: 
  seq: 43
  stamp: 
    secs: 1624875199
    nsecs: 879475117
  frame_id: "/world"
pose: 
  pose: 
    position: 
      x: 0.000833026600846
      y: 0.0164104680495
      z: 0.0
    orientation: 
      x: -0.0
      y: -0.000341267352612
      z: -0.0
      w: 0.999999941768
  covariance: [10.429549924358632, -1.4239469457389318e-08, 0.0, 0.0, -6.3328065618231e-06, 0.0, -1.4239469457389285e-08, 10.429549922307963, 0.0, 0.0, 5.834703781534976e-06, 0.0, 0.0, 0.0, 1e-07, 0.0, 0.0, 0.0, 0.0, 0.0, 0.0, 1e-07, 0.0, 0.0, -6.3328065618231036e-06, 5.834703781534978e-06, 0.0, 0.0, 10.417878557067265, 0.0, 0.0, 0.0, 0.0, 0.0, 0.0, 1e-07]
---
header: 
  seq: 44
  stamp: 
    secs: 1624875199
    nsecs: 959450006
  frame_id: "/world"
pose: 
  pose: 
    position: 
      x: 0.00117863922695
      y: 0.0163072606007
      z: 0.0
    orientation: 
      x: 0.0
      y: 0.000148209862774
      z: 0.0
      w: 0.999999989017
  covariance: [8.716945349140108, -1.2633551845756085e-08, 0.0, 0.0, -9.01127956118428e-06, 0.0, -1.2633551845756057e-08, 8.71694534730184, 0.0, 0.0, 5.786114230873473e-06, 0.0, 0.0, 0.0, 1e-07, 0.0, 0.0, 0.0, 0.0, 0.0, 0.0, 1e-07, 0.0, 0.0, -9.01127956118428e-06, 5.786114230873476e-06, 0.0, 0.0, 8.706295560327522, 0.0, 0.0, 0.0, 0.0, 0.0, 0.0, 1e-07]
---
header: 
  seq: 45
  stamp: 
    secs: 1624875200
    nsecs:  39455891
  frame_id: "/world"
pose: 
  pose: 
    position: 
      x: 0.00191347018293
      y: 0.0303008315088
      z: 0.0
    orientation: 
      x: -0.0
      y: -1.89652015222e-05
      z: -0.0
      w: 0.99999999982
  covariance: [9.071013981238169, -2.0391317329312797e-08, 0.0, 0.0, -1.9993804152798187e-05, 0.0, -2.0391317329312747e-08, 9.071013978193548, 0.0, 0.0, 1.2356219059953533e-05, 0.0, 0.0, 0.0, 1e-07, 0.0, 0.0, 0.0, 0.0, 0.0, 0.0, 1e-07, 0.0, 0.0, -1.9993804152798187e-05, 1.235621905995354e-05, 0.0, 0.0, 9.053185736361623, 0.0, 0.0, 0.0, 0.0, 0.0, 0.0, 1e-07]
---
header: 
  seq: 46
  stamp: 
    secs: 1624875200
    nsecs: 119455099
  frame_id: "/world"
pose: 
  pose: 
    position: 
      x: 0.00522871971408
      y: 0.0127281908142
      z: 0.0
    orientation: 
      x: 0.0
      y: 5.58547897419e-05
      z: 0.0
      w: 0.99999999844
  covariance: [6.850193881378459, -9.301507255491722e-09, 0.0, 0.0, -9.716836926241863e-06, 0.0, -9.301507255491697e-09, 6.850193879970645, 0.0, 0.0, 5.857141325473772e-06, 0.0, 0.0, 0.0, 1e-07, 0.0, 0.0, 0.0, 0.0, 0.0, 0.0, 1e-07, 0.0, 0.0, -9.716836926241866e-06, 5.8571413254737795e-06, 0.0, 0.0, 6.841899640798484, 0.0, 0.0, 0.0, 0.0, 0.0, 0.0, 1e-07]
---
header: 
  seq: 47
  stamp: 
    secs: 1624875200
    nsecs: 199474096
  frame_id: "/world"
pose: 
  pose: 
    position: 
      x: 0.00692046202895
      y: 0.00831617702429
      z: 0.0
    orientation: 
      x: -0.0
      y: -0.00017924013968
      z: -0.0
      w: 0.999999983936
  covariance: [6.813636944206522, -9.165813940183094e-09, 0.0, 0.0, -8.504696513851456e-06, 0.0, -9.16581394018307e-09, 6.8136369427833, 0.0, 0.0, 5.018490966792904e-06, 0.0, 0.0, 0.0, 1e-07, 0.0, 0.0, 0.0, 0.0, 0.0, 0.0, 1e-07, 0.0, 0.0, -8.504696513851464e-06, 5.01849096679291e-06, 0.0, 0.0, 6.8052296475089475, 0.0, 0.0, 0.0, 0.0, 0.0, 0.0, 1e-07]
---
header: 
  seq: 48
  stamp: 
    secs: 1624875200
    nsecs: 279485941
  frame_id: "/world"
pose: 
  pose: 
    position: 
      x: 0.00350393720251
      y: 0.0279228469351
      z: 0.0
    orientation: 
      x: 0.0
      y: 0.000139258630048
      z: 0.0
      w: 0.999999990304
  covariance: [6.80397922008437, -1.1487301687072829e-08, 0.0, 0.0, -6.8872417429891e-06, 0.0, -1.1487301687072796e-08, 6.803979218264553, 0.0, 0.0, 4.246626583476236e-06, 0.0, 0.0, 0.0, 1e-07, 0.0, 0.0, 0.0, 0.0, 0.0, 0.0, 1e-07, 0.0, 0.0, -6.887241742989105e-06, 4.24662658347624e-06, 0.0, 0.0, 6.793111744317717, 0.0, 0.0, 0.0, 0.0, 0.0, 0.0, 1e-07]
---
header: 
  seq: 49
  stamp: 
    secs: 1624875200
    nsecs: 359488964
  frame_id: "/world"
pose: 
  pose: 
    position: 
      x: 0.00411981504066
      y: 0.0278321183957
      z: 0.0
    orientation: 
      x: 0.0
      y: 6.70055884419e-05
      z: 0.0
      w: 0.999999997755
  covariance: [6.263785616830026, -6.0212980423773e-09, 0.0, 0.0, -3.97246087593067e-06, 0.0, -6.021298042377284e-09, 6.263785615868659, 0.0, 0.0, 2.3303442376061175e-06, 0.0, 0.0, 0.0, 1e-07, 0.0, 0.0, 0.0, 0.0, 0.0, 0.0, 1e-07, 0.0, 0.0, -3.972460875930671e-06, 2.330344237606118e-06, 0.0, 0.0, 6.258009766210611, 0.0, 0.0, 0.0, 0.0, 0.0, 0.0, 1e-07]
---
header: 
  seq: 50
  stamp: 
    secs: 1624875200
    nsecs: 439486027
  frame_id: "/world"
pose: 
  pose: 
    position: 
      x: 0.00170615913537
      y: 0.0227744893462
      z: 0.0
    orientation: 
      x: 0.0
      y: 9.95140267022e-05
      z: 0.0
      w: 0.999999995048
  covariance: [6.612827744697019, -4.670546484113974e-09, 0.0, 0.0, -3.6402228387361465e-06, 0.0, -4.67054648411396e-09, 6.612827743941922, 0.0, 0.0, 1.909185784228944e-06, 0.0, 0.0, 0.0, 1e-07, 0.0, 0.0, 0.0, 0.0, 0.0, 0.0, 1e-07, 0.0, 0.0, -3.640222838736148e-06, 1.9091857842289445e-06, 0.0, 0.0, 6.608272718282844, 0.0, 0.0, 0.0, 0.0, 0.0, 0.0, 1e-07]
---
header: 
  seq: 51
  stamp: 
    secs: 1624875200
    nsecs: 519515038
  frame_id: "/world"
pose: 
  pose: 
    position: 
      x: 0.00169110298905
      y: 0.0227685736552
      z: 0.0
    orientation: 
      x: -0.0
      y: -8.95433212223e-06
      z: -0.0
      w: 0.99999999996
  covariance: [8.08927721725767, -1.6891452036913866e-09, 0.0, 0.0, -1.2708184239368811e-06, 0.0, -1.6891452036913808e-09, 8.089277216985941, 0.0, 0.0, 7.187257386142542e-07, 0.0, 0.0, 0.0, 1e-07, 0.0, 0.0, 0.0, 0.0, 0.0, 0.0, 1e-07, 0.0, 0.0, -1.2708184239368815e-06, 7.187257386142546e-07, 0.0, 0.0, 8.087637278832627, 0.0, 0.0, 0.0, 0.0, 0.0, 0.0, 1e-07]
---
header: 
  seq: 52
  stamp: 
    secs: 1624875200
    nsecs: 599533081
  frame_id: "/world"
pose: 
  pose: 
    position: 
      x: 0.00311351073892
      y: 0.0430950522637
      z: 0.0
    orientation: 
      x: 0.0
      y: 0.000259467151856
      z: 0.0
      w: 0.999999966338
  covariance: [9.867491828635, -6.219476929989891e-09, 0.0, 0.0, -3.671787789530499e-06, 0.0, -6.219476929989876e-09, 9.867491827611309, 0.0, 0.0, 3.180515435328955e-06, 0.0, 0.0, 0.0, 1e-07, 0.0, 0.0, 0.0, 0.0, 0.0, 0.0, 1e-07, 0.0, 0.0, -3.671787789530501e-06, 3.180515435328955e-06, 0.0, 0.0, 9.86117128550643, 0.0, 0.0, 0.0, 0.0, 0.0, 0.0, 1e-07]
---
header: 
  seq: 53
  stamp: 
    secs: 1624875200
    nsecs: 679512978
  frame_id: "/world"
pose: 
  pose: 
    position: 
      x: 0.00697223945168
      y: 0.0797212810187
      z: 0.0
    orientation: 
      x: -0.0
      y: -0.000397378624356
      z: -0.0
      w: 0.999999921045
  covariance: [8.53537921340122, -8.990785794317857e-09, 0.0, 0.0, -2.963454538326025e-06, 0.0, -8.990785794317835e-09, 8.535379211910438, 0.0, 0.0, 3.6671407348286737e-06, 0.0, 0.0, 0.0, 1e-07, 0.0, 0.0, 0.0, 0.0, 0.0, 0.0, 1e-07, 0.0, 0.0, -2.963454538326025e-06, 3.667140734828673e-06, 0.0, 0.0, 8.525912122733539, 0.0, 0.0, 0.0, 0.0, 0.0, 0.0, 1e-07]
---
header: 
  seq: 54
  stamp: 
    secs: 1624875200
    nsecs: 759515047
  frame_id: "/world"
pose: 
  pose: 
    position: 
      x: 0.00710837077299
      y: 0.0798090072252
      z: 0.0
    orientation: 
      x: -0.0
      y: -0.000107432669544
      z: -0.0
      w: 0.999999994229
  covariance: [8.989838112870954, -1.4613674772677515e-08, 0.0, 0.0, -2.815725423658808e-06, 0.0, -1.4613674772677473e-08, 8.989838110448014, 0.0, 0.0, 7.145359338246082e-06, 0.0, 0.0, 0.0, 1e-07, 0.0, 0.0, 0.0, 0.0, 0.0, 0.0, 1e-07, 0.0, 0.0, -2.815725423658809e-06, 7.1453593382460825e-06, 0.0, 0.0, 8.974076526306552, 0.0, 0.0, 0.0, 0.0, 0.0, 0.0, 1e-07]
---
header: 
  seq: 55
  stamp: 
    secs: 1624875200
    nsecs: 839543104
  frame_id: "/world"
pose: 
  pose: 
    position: 
      x: 0.00859331568175
      y: 0.103013890972
      z: 0.0
    orientation: 
      x: 0.0
      y: 0.0022884793268
      z: 0.0
      w: 0.999997381428
  covariance: [9.189678237325923, -1.8658923711305735e-08, 0.0, 0.0, -8.668323780503765e-06, 0.0, -1.865892371130568e-08, 9.1896782342381, 0.0, 0.0, 9.343818663895769e-06, 0.0, 0.0, 0.0, 1e-07, 0.0, 0.0, 0.0, 0.0, 0.0, 0.0, 1e-07, 0.0, 0.0, -8.668323780503763e-06, 9.343818663895767e-06, 0.0, 0.0, 9.169177335594483, 0.0, 0.0, 0.0, 0.0, 0.0, 0.0, 1e-07]
---
header: 
  seq: 56
  stamp: 
    secs: 1624875200
    nsecs: 919538975
  frame_id: "/world"
pose: 
  pose: 
    position: 
      x: 0.00428757485044
      y: 0.11077822985
      z: 0.0
    orientation: 
      x: 0.0
      y: 0.000504456930103
      z: 0.0
      w: 0.999999872762
  covariance: [7.530283569338185, -1.4107957036767555e-08, 0.0, 0.0, -1.2473398889976944e-05, 0.0, -1.4107957036767514e-08, 7.530283566963214, 0.0, 0.0, 5.511335954322725e-06, 0.0, 0.0, 0.0, 1e-07, 0.0, 0.0, 0.0, 0.0, 0.0, 0.0, 1e-07, 0.0, 0.0, -1.2473398889976943e-05, 5.511335954322724e-06, 0.0, 0.0, 7.514519150095854, 0.0, 0.0, 0.0, 0.0, 0.0, 0.0, 1e-07]
---
header: 
  seq: 57
  stamp: 
    secs: 1624875200
    nsecs: 999536991
  frame_id: "/world"
pose: 
  pose: 
    position: 
      x: 0.00151663760433
      y: 0.0811101772075
      z: 0.0
    orientation: 
      x: -0.0
      y: -5.61993155065e-05
      z: -0.0
      w: 0.999999998421
  covariance: [8.519030551815368, -1.4853078972163737e-09, 0.0, 0.0, -7.695498016380804e-07, 0.0, -1.4853078972163686e-09, 8.519030551566688, 0.0, 0.0, 7.780477217188373e-07, 0.0, 0.0, 0.0, 1e-07, 0.0, 0.0, 0.0, 0.0, 0.0, 0.0, 1e-07, 0.0, 0.0, -7.695498016380817e-07, 7.780477217188366e-07, 0.0, 0.0, 8.517372433936337, 0.0, 0.0, 0.0, 0.0, 0.0, 0.0, 1e-07]
---
header: 
  seq: 58
  stamp: 
    secs: 1624875201
    nsecs:  79540968
  frame_id: "/world"
pose: 
  pose: 
    position: 
      x: 0.00291423774383
      y: 0.0714232394328
      z: 0.0
    orientation: 
      x: 0.0
      y: 4.80716095452e-05
      z: 0.0
      w: 0.999999998845
  covariance: [7.327921697120641, -7.038941843246094e-10, 0.0, 0.0, -4.0854791091300086e-07, 0.0, -7.03894184324607e-10, 7.327921697004113, 0.0, 0.0, 3.679089009349502e-07, 0.0, 0.0, 0.0, 1e-07, 0.0, 0.0, 0.0, 0.0, 0.0, 0.0, 1e-07, 0.0, 0.0, -4.085479109130009e-07, 3.6790890093495e-07, 0.0, 0.0, 7.327140188449183, 0.0, 0.0, 0.0, 0.0, 0.0, 0.0, 1e-07]
---
header: 
  seq: 59
  stamp: 
    secs: 1624875201
    nsecs: 159560919
  frame_id: "/world"
pose: 
  pose: 
    position: 
      x: -0.00323561132099
      y: 0.0777530353866
      z: 0.0
    orientation: 
      x: 0.0
      y: 0.000172843880588
      z: 0.0
      w: 0.999999985062
  covariance: [7.632862195453625, -5.396386791882401e-09, 0.0, 0.0, -1.98587669485776e-06, 0.0, -5.396386791882387e-09, 7.6328621945144075, 0.0, 0.0, 1.5511758753030348e-06, 0.0, 0.0, 0.0, 1e-07, 0.0, 0.0, 0.0, 0.0, 0.0, 0.0, 1e-07, 0.0, 0.0, -1.9858766948577596e-06, 1.5511758753030348e-06, 0.0, 0.0, 7.6264959731959285, 0.0, 0.0, 0.0, 0.0, 0.0, 0.0, 1e-07]
---
header: 
  seq: 60
  stamp: 
    secs: 1624875201
    nsecs: 239557981
  frame_id: "/world"
pose: 
  pose: 
    position: 
      x: -0.0102893451605
      y: 0.0737500433133
      z: 0.0
    orientation: 
      x: -0.0
      y: -0.000276517209936
      z: -0.0
      w: 0.999999961769
  covariance: [8.584408983084927, -1.2642446357245383e-08, 0.0, 0.0, -4.038700503584341e-06, 0.0, -1.2642446357245352e-08, 8.584408980842381, 0.0, 0.0, 2.7363723425999526e-06, 0.0, 0.0, 0.0, 1e-07, 0.0, 0.0, 0.0, 0.0, 0.0, 0.0, 1e-07, 0.0, 0.0, -4.038700503584339e-06, 2.7363723425999526e-06, 0.0, 0.0, 8.569116971122988, 0.0, 0.0, 0.0, 0.0, 0.0, 0.0, 1e-07]
---
header: 
  seq: 61
  stamp: 
    secs: 1624875201
    nsecs: 319547892
  frame_id: "/world"
pose: 
  pose: 
    position: 
      x: -0.010261107154
      y: 0.0739101693853
      z: 0.0
    orientation: 
      x: -0.0
      y: -5.95845939277e-05
      z: -0.0
      w: 0.999999998225
  covariance: [8.091584179325764, -6.003352241560462e-09, 0.0, 0.0, -1.9086220101898923e-06, 0.0, -6.003352241560447e-09, 8.091584178258362, 0.0, 0.0, 1.2097003053667123e-06, 0.0, 0.0, 0.0, 1e-07, 0.0, 0.0, 0.0, 0.0, 0.0, 0.0, 1e-07, 0.0, 0.0, -1.908622010189891e-06, 1.209700305366712e-06, 0.0, 0.0, 8.084284323254858, 0.0, 0.0, 0.0, 0.0, 0.0, 0.0, 1e-07]
---
header: 
  seq: 62
  stamp: 
    secs: 1624875201
    nsecs: 399564028
  frame_id: "/world"
pose: 
  pose: 
    position: 
      x: -0.00385669686624
      y: 0.0672982451832
      z: 0.0
    orientation: 
      x: -0.0
      y: -0.000738125484401
      z: -0.0
      w: 0.999999727585
  covariance: [8.797555779431198, -1.600774559183516e-08, 0.0, 0.0, -8.431719548659337e-06, 0.0, -1.600774559183512e-08, 8.797555776546139, 0.0, 0.0, 3.184758622294765e-06, 0.0, 0.0, 0.0, 1e-07, 0.0, 0.0, 0.0, 0.0, 0.0, 0.0, 1e-07, 0.0, 0.0, -8.431719548659337e-06, 3.184758622294765e-06, 0.0, 0.0, 8.777563454693103, 0.0, 0.0, 0.0, 0.0, 0.0, 0.0, 1e-07]
---
header: 
  seq: 63
  stamp: 
    secs: 1624875201
    nsecs: 479578972
  frame_id: "/world"
pose: 
  pose: 
    position: 
      x: -0.00350858971035
      y: 0.067701371288
      z: 0.0
    orientation: 
      x: -0.0
      y: -0.000345703414971
      z: -0.0
      w: 0.999999940245
  covariance: [8.18183584110367, -1.883703010278204e-08, 0.0, 0.0, -9.578913580447987e-06, 0.0, -1.8837030102781997e-08, 8.181835837672871, 0.0, 0.0, 3.182161552695932e-06, 0.0, 0.0, 0.0, 1e-07, 0.0, 0.0, 0.0, 0.0, 0.0, 0.0, 1e-07, 0.0, 0.0, -9.57891358044799e-06, 3.1821615526959317e-06, 0.0, 0.0, 8.157835581057473, 0.0, 0.0, 0.0, 0.0, 0.0, 0.0, 1e-07]
---
header: 
  seq: 64
  stamp: 
    secs: 1624875201
    nsecs: 559628963
  frame_id: "/world"
pose: 
  pose: 
    position: 
      x: -0.0111300352788
      y: 0.067056245337
      z: 0.0
    orientation: 
      x: 0.0
      y: 0.000128814391306
      z: 0.0
      w: 0.999999991703
  covariance: [7.241779245825406, -1.663592656885984e-08, 0.0, 0.0, -6.593230475229682e-06, 0.0, -1.6635926568859794e-08, 7.241779242773938, 0.0, 0.0, 1.6264059237312903e-06, 0.0, 0.0, 0.0, 1e-07, 0.0, 0.0, 0.0, 0.0, 0.0, 0.0, 1e-07, 0.0, 0.0, -6.5932304752296835e-06, 1.6264059237312895e-06, 0.0, 0.0, 7.220188521838424, 0.0, 0.0, 0.0, 0.0, 0.0, 0.0, 1e-07]
---
header: 
  seq: 65
  stamp: 
    secs: 1624875201
    nsecs: 639638901
  frame_id: "/world"
pose: 
  pose: 
    position: 
      x: -0.00929179928672
      y: 0.0578352446516
      z: 0.0
    orientation: 
      x: 0.0
      y: 8.59037006861e-05
      z: 0.0
      w: 0.99999999631
  covariance: [7.600496343640866, -1.1505592590481727e-08, 0.0, 0.0, -3.873183760455839e-06, 0.0, -1.15055925904817e-08, 7.600496341523942, 0.0, 0.0, 7.956870880153922e-07, 0.0, 0.0, 0.0, 1e-07, 0.0, 0.0, 0.0, 0.0, 0.0, 0.0, 1e-07, 0.0, 0.0, -3.873183760455842e-06, 7.956870880153921e-07, 0.0, 0.0, 7.585424968516159, 0.0, 0.0, 0.0, 0.0, 0.0, 0.0, 1e-07]
---
header: 
  seq: 66
  stamp: 
    secs: 1624875201
    nsecs: 719597101
  frame_id: "/world"
pose: 
  pose: 
    position: 
      x: -0.0194372786599
      y: 0.0736482208398
      z: 0.0
    orientation: 
      x: -0.0
      y: -0.000165875077853
      z: -0.0
      w: 0.999999986243
  covariance: [8.568504390771684, -1.3788963894632275e-08, 0.0, 0.0, -3.974822469017283e-06, 0.0, -1.3788963894632245e-08, 8.5685043882266, 0.0, 0.0, 3.407900477125552e-06, 0.0, 0.0, 0.0, 1e-07, 0.0, 0.0, 0.0, 0.0, 0.0, 0.0, 1e-07, 0.0, 0.0, -3.974822469017285e-06, 3.4079004771255523e-06, 0.0, 0.0, 8.550165670015407, 0.0, 0.0, 0.0, 0.0, 0.0, 0.0, 1e-07]
---
header: 
  seq: 67
  stamp: 
    secs: 1624875201
    nsecs: 799607038
  frame_id: "/world"
pose: 
  pose: 
    position: 
      x: -0.0189989177182
      y: 0.0739950149124
      z: 0.0
    orientation: 
      x: -0.0
      y: -0.000383313890377
      z: -0.0
      w: 0.999999926535
  covariance: [8.098124631112075, -1.5159058190265913e-08, 0.0, 0.0, -6.4103104581784824e-06, 0.0, -1.5159058190265883e-08, 8.098124628315821, 0.0, 0.0, 6.729358811134934e-06, 0.0, 0.0, 0.0, 1e-07, 0.0, 0.0, 0.0, 0.0, 0.0, 0.0, 1e-07, 0.0, 0.0, -6.4103104581784824e-06, 6.729358811134931e-06, 0.0, 0.0, 8.077564574050317, 0.0, 0.0, 0.0, 0.0, 0.0, 0.0, 1e-07]
---
header: 
  seq: 68
  stamp: 
    secs: 1624875201
    nsecs: 879617929
  frame_id: "/world"
pose: 
  pose: 
    position: 
      x: -0.0239214889737
      y: 0.0713017685962
      z: 0.0
    orientation: 
      x: -0.0
      y: -0.000150143592512
      z: -0.0
      w: 0.999999988728
  covariance: [6.623175627488095, -1.5173527259693928e-08, 0.0, 0.0, -6.4085129237086795e-06, 0.0, -1.5173527259693895e-08, 6.62317562468812, 0.0, 0.0, 5.7301476360502045e-06, 0.0, 0.0, 0.0, 1e-07, 0.0, 0.0, 0.0, 0.0, 0.0, 0.0, 1e-07, 0.0, 0.0, -6.408512923708683e-06, 5.730147636050202e-06, 0.0, 0.0, 6.602152181844446, 0.0, 0.0, 0.0, 0.0, 0.0, 0.0, 1e-07]
---
header: 
  seq: 69
  stamp: 
    secs: 1624875201
    nsecs: 959651947
  frame_id: "/world"
pose: 
  pose: 
    position: 
      x: -0.0224349219106
      y: 0.0719322817239
      z: 0.0
    orientation: 
      x: -0.0
      y: -0.000190531457338
      z: -0.0
      w: 0.999999981849
  covariance: [6.222725174686373, -1.3381555984559277e-08, 0.0, 0.0, -5.424212123960663e-06, 0.0, -1.3381555984559242e-08, 6.222725172211248, 0.0, 0.0, 3.416152921665299e-06, 0.0, 0.0, 0.0, 1e-07, 0.0, 0.0, 0.0, 0.0, 0.0, 0.0, 1e-07, 0.0, 0.0, -5.4242121239606604e-06, 3.4161529216652967e-06, 0.0, 0.0, 6.203848129824357, 0.0, 0.0, 0.0, 0.0, 0.0, 0.0, 1e-07]
---
header: 
  seq: 70
  stamp: 
    secs: 1624875202
    nsecs:  39701939
  frame_id: "/world"
pose: 
  pose: 
    position: 
      x: -0.0249211441792
      y: 0.0686466062594
      z: 0.0
    orientation: 
      x: -0.0
      y: -2.38326114436e-05
      z: -0.0
      w: 0.999999999716
  covariance: [6.099456279905903, -7.960471946582176e-09, 0.0, 0.0, -3.04103704253204e-06, 0.0, -7.960471946582161e-09, 6.0994562784294635, 0.0, 0.0, 1.5209934075323622e-06, 0.0, 0.0, 0.0, 1e-07, 0.0, 0.0, 0.0, 0.0, 0.0, 0.0, 1e-07, 0.0, 0.0, -3.0410370425320393e-06, 1.520993407532361e-06, 0.0, 0.0, 6.088089134366699, 0.0, 0.0, 0.0, 0.0, 0.0, 0.0, 1e-07]
---
header: 
  seq: 71
  stamp: 
    secs: 1624875202
    nsecs: 119643927
  frame_id: "/world"
pose: 
  pose: 
    position: 
      x: -0.0243534614371
      y: 0.0705517257814
      z: 0.0
    orientation: 
      x: -0.0
      y: -1.13757055991e-05
      z: -0.0
      w: 0.999999999935
  covariance: [6.561078424409695, -8.07391982956032e-09, 0.0, 0.0, -3.5291716057884617e-06, 0.0, -8.073919829560303e-09, 6.561078422904348, 0.0, 0.0, 1.0175506089896602e-06, 0.0, 0.0, 0.0, 1e-07, 0.0, 0.0, 0.0, 0.0, 0.0, 0.0, 1e-07, 0.0, 0.0, -3.529171605788462e-06, 1.01755060898966e-06, 0.0, 0.0, 6.549351964106195, 0.0, 0.0, 0.0, 0.0, 0.0, 0.0, 1e-07]
---
header: 
  seq: 72
  stamp: 
    secs: 1624875202
    nsecs: 199664116
  frame_id: "/world"
pose: 
  pose: 
    position: 
      x: -0.025419868889
      y: 0.0693357429654
      z: 0.0
    orientation: 
      x: -0.0
      y: -4.80184683067e-05
      z: -0.0
      w: 0.999999998847
  covariance: [6.7252134227399125, -1.1866666244636634e-08, 0.0, 0.0, -4.75954256596035e-06, 0.0, -1.1866666244636614e-08, 6.725213420512024, 0.0, 0.0, 3.4063648153580773e-06, 0.0, 0.0, 0.0, 1e-07, 0.0, 0.0, 0.0, 0.0, 0.0, 0.0, 1e-07, 0.0, 0.0, -4.759542565960349e-06, 3.4063648153580756e-06, 0.0, 0.0, 6.7075861958796175, 0.0, 0.0, 0.0, 0.0, 0.0, 0.0, 1e-07]
---
header: 
  seq: 73
  stamp: 
    secs: 1624875202
    nsecs: 279659033
  frame_id: "/world"
pose: 
  pose: 
    position: 
      x: -0.0253446741531
      y: 0.0694086183036
      z: 0.0
    orientation: 
      x: -0.0
      y: -0.000100761670914
      z: -0.0
      w: 0.999999994924
  covariance: [6.77842123012036, -1.1774321664977542e-08, 0.0, 0.0, -7.82425314367777e-07, 0.0, -1.1774321664977517e-08, 6.7784212279133165, 0.0, 0.0, 3.899854464605632e-06, 0.0, 0.0, 0.0, 1e-07, 0.0, 0.0, 0.0, 0.0, 0.0, 0.0, 1e-07, 0.0, 0.0, -7.824253143677766e-07, 3.899854464605631e-06, 0.0, 0.0, 6.760663426466538, 0.0, 0.0, 0.0, 0.0, 0.0, 0.0, 1e-07]
---
header: 
  seq: 74
  stamp: 
    secs: 1624875202
    nsecs: 359657049
  frame_id: "/world"
pose: 
  pose: 
    position: 
      x: -0.0252920790212
      y: 0.0694601097115
      z: 0.0
    orientation: 
      x: -0.0
      y: -0.000125277904577
      z: -0.0
      w: 0.999999992153
  covariance: [9.108895719258024, -1.3400596682813527e-08, 0.0, 0.0, 1.398736772090177e-06, 0.0, -1.3400596682813499e-08, 9.108895716746556, 0.0, 0.0, 4.010259942346317e-06, 0.0, 0.0, 0.0, 1e-07, 0.0, 0.0, 0.0, 0.0, 0.0, 0.0, 1e-07, 0.0, 0.0, 1.3987367720901762e-06, 4.010259942346316e-06, 0.0, 0.0, 9.088497017582053, 0.0, 0.0, 0.0, 0.0, 0.0, 0.0, 1e-07]
---
header: 
  seq: 75
  stamp: 
    secs: 1624875202
    nsecs: 439666033
  frame_id: "/world"
pose: 
  pose: 
    position: 
      x: -0.0245682481402
      y: 0.0683523318375
      z: 0.0
    orientation: 
      x: 0.0
      y: 1.69631372461e-05
      z: 0.0
      w: 0.999999999856
  covariance: [6.3192041936226095, -5.999413326056214e-09, 0.0, 0.0, -5.653885152104655e-07, 0.0, -5.999413326056206e-09, 6.319204192501843, 0.0, 0.0, 3.7769954710761027e-06, 0.0, 0.0, 0.0, 1e-07, 0.0, 0.0, 0.0, 0.0, 0.0, 0.0, 1e-07, 0.0, 0.0, -5.653885152104661e-07, 3.776995471076103e-06, 0.0, 0.0, 6.309947517610192, 0.0, 0.0, 0.0, 0.0, 0.0, 0.0, 1e-07]
---
header: 
  seq: 76
  stamp: 
    secs: 1624875202
    nsecs: 519676924
  frame_id: "/world"
pose: 
  pose: 
    position: 
      x: -0.0248253198229
      y: 0.0678310434513
      z: 0.0
    orientation: 
      x: 0.0
      y: 0.000908551780223
      z: 0.0
      w: 0.999999587267
  covariance: [6.6461358273646, -1.2636131845770824e-08, 0.0, 0.0, -3.5843337853883538e-06, 0.0, -1.2636131845770797e-08, 6.646135825062068, 0.0, 0.0, 9.228018464882356e-06, 0.0, 0.0, 0.0, 1e-07, 0.0, 0.0, 0.0, 0.0, 0.0, 0.0, 1e-07, 0.0, 0.0, -3.5843337853883555e-06, 9.228018464882356e-06, 0.0, 0.0, 6.626136639460119, 0.0, 0.0, 0.0, 0.0, 0.0, 0.0, 1e-07]
---
header: 
  seq: 77
  stamp: 
    secs: 1624875202
    nsecs: 599704027
  frame_id: "/world"
pose: 
  pose: 
    position: 
      x: -0.0246557397701
      y: 0.0680612655764
      z: 0.0
    orientation: 
      x: 0.0
      y: 0.000148794474769
      z: 0.0
      w: 0.99999998893
  covariance: [6.757613583721207, -1.5035661073238473e-08, 0.0, 0.0, -3.364742899821791e-06, 0.0, -1.5035661073238433e-08, 6.757613581010451, 0.0, 0.0, 6.922522447066454e-06, 0.0, 0.0, 0.0, 1e-07, 0.0, 0.0, 0.0, 0.0, 0.0, 0.0, 1e-07, 0.0, 0.0, -3.364742899821792e-06, 6.922522447066457e-06, 0.0, 0.0, 6.733409954662621, 0.0, 0.0, 0.0, 0.0, 0.0, 0.0, 1e-07]
---
header: 
  seq: 78
  stamp: 
    secs: 1624875202
    nsecs: 679709911
  frame_id: "/world"
pose: 
  pose: 
    position: 
      x: -0.0391279068951
      y: 0.0686073061185
      z: 0.0
    orientation: 
      x: 0.0
      y: 0.000241586721999
      z: 0.0
      w: 0.999999970818
  covariance: [9.121360969018584, -3.0099151060539856e-08, 0.0, 0.0, -5.616379266345125e-06, 0.0, -3.0099151060539776e-08, 9.121360963623529, 0.0, 0.0, 8.197711330131567e-06, 0.0, 0.0, 0.0, 1e-07, 0.0, 0.0, 0.0, 0.0, 0.0, 0.0, 1e-07, 0.0, 0.0, -5.616379266345128e-06, 8.197711330131568e-06, 0.0, 0.0, 9.072211631705299, 0.0, 0.0, 0.0, 0.0, 0.0, 0.0, 1e-07]
---
header: 
  seq: 79
  stamp: 
    secs: 1624875202
    nsecs: 759694099
  frame_id: "/world"
pose: 
  pose: 
    position: 
      x: -0.0357354233791
      y: 0.0703866815002
      z: 0.0
    orientation: 
      x: -0.0
      y: -8.57534647727e-05
      z: -0.0
      w: 0.999999996323
  covariance: [7.517635917918099, -1.845248168703214e-08, 0.0, 0.0, -9.1783229220357e-06, 0.0, -1.8452481687032093e-08, 7.517635914602209, 0.0, 0.0, 5.182350111917112e-06, 0.0, 0.0, 0.0, 1e-07, 0.0, 0.0, 0.0, 0.0, 0.0, 0.0, 1e-07, 0.0, 0.0, -9.1783229220357e-06, 5.182350111917112e-06, 0.0, 0.0, 7.487159214400504, 0.0, 0.0, 0.0, 0.0, 0.0, 0.0, 1e-07]
---
header: 
  seq: 80
  stamp: 
    secs: 1624875202
    nsecs: 839711905
  frame_id: "/world"
pose: 
  pose: 
    position: 
      x: -0.0358494481744
      y: 0.0733075810375
      z: 0.0
    orientation: 
      x: 0.0
      y: 0.000129061164933
      z: 0.0
      w: 0.999999991672
  covariance: [7.0448275793123525, -1.8677459267813282e-08, 0.0, 0.0, -1.1823782523226391e-05, 0.0, -1.8677459267813226e-08, 7.044827575879366, 0.0, 0.0, 5.142632493651937e-06, 0.0, 0.0, 0.0, 1e-07, 0.0, 0.0, 0.0, 0.0, 0.0, 0.0, 1e-07, 0.0, 0.0, -1.1823782523226395e-05, 5.142632493651941e-06, 0.0, 0.0, 7.013503044290827, 0.0, 0.0, 0.0, 0.0, 0.0, 0.0, 1e-07]
---
header: 
  seq: 81
  stamp: 
    secs: 1624875202
    nsecs: 919713974
  frame_id: "/world"
pose: 
  pose: 
    position: 
      x: -0.0319756613284
      y: 0.0836901609972
      z: 0.0
    orientation: 
      x: -0.0
      y: -8.64613818563e-06
      z: -0.0
      w: 0.999999999963
  covariance: [8.318771696901253, -2.1501370798348492e-08, 0.0, 0.0, -1.3802808737078841e-05, 0.0, -2.1501370798348432e-08, 8.318771692873073, 0.0, 0.0, 3.786312426854718e-06, 0.0, 0.0, 0.0, 1e-07, 0.0, 0.0, 0.0, 0.0, 0.0, 0.0, 1e-07, 0.0, 0.0, -1.3802808737078838e-05, 3.7863124268547194e-06, 0.0, 0.0, 8.282280046217688, 0.0, 0.0, 0.0, 0.0, 0.0, 0.0, 1e-07]
---
header: 
  seq: 82
  stamp: 
    secs: 1624875202
    nsecs: 999722004
  frame_id: "/world"
pose: 
  pose: 
    position: 
      x: -0.0334419058191
      y: 0.0839242132844
      z: 0.0
    orientation: 
      x: -0.0
      y: -0.000124270968843
      z: -0.0
      w: 0.999999992278
  covariance: [7.285612154395065, -1.6342063560385515e-08, 0.0, 0.0, -1.0141404376069271e-05, 0.0, -1.6342063560385462e-08, 7.285612151289366, 0.0, 0.0, 8.922283412928617e-06, 0.0, 0.0, 0.0, 1e-07, 0.0, 0.0, 0.0, 0.0, 0.0, 0.0, 1e-07, 0.0, 0.0, -1.0141404376069268e-05, 8.922283412928615e-06, 0.0, 0.0, 7.25751311151408, 0.0, 0.0, 0.0, 0.0, 0.0, 0.0, 1e-07]
---
header: 
  seq: 83
  stamp: 
    secs: 1624875203
    nsecs:  79710960
  frame_id: "/world"
pose: 
  pose: 
    position: 
      x: -0.0303143634306
      y: 0.0833411030182
      z: 0.0
    orientation: 
      x: -0.0
      y: -0.000128054513425
      z: -0.0
      w: 0.999999991801
  covariance: [8.431441274547014, -1.95115995774335e-08, 0.0, 0.0, -1.1274742519905508e-05, 0.0, -1.9511599577433442e-08, 8.4314412708876, 0.0, 0.0, 1.594044930932453e-05, 0.0, 0.0, 0.0, 1e-07, 0.0, 0.0, 0.0, 0.0, 0.0, 0.0, 1e-07, 0.0, 0.0, -1.1274742519905505e-05, 1.5940449309324528e-05, 0.0, 0.0, 8.397533699243569, 0.0, 0.0, 0.0, 0.0, 0.0, 0.0, 1e-07]
---
header: 
  seq: 84
  stamp: 
    secs: 1624875203
    nsecs: 159800053
  frame_id: "/world"
pose: 
  pose: 
    position: 
      x: -0.0333926767638
      y: 0.0837905940273
      z: 0.0
    orientation: 
      x: -0.0
      y: -4.15998685284e-06
      z: -0.0
      w: 0.999999999991
  covariance: [7.314944221099614, -1.318445115279974e-08, 0.0, 0.0, -9.331533933212873e-06, 0.0, -1.31844511527997e-08, 7.314944218648792, 0.0, 0.0, 9.750010452442614e-06, 0.0, 0.0, 0.0, 1e-07, 0.0, 0.0, 0.0, 0.0, 0.0, 0.0, 1e-07, 0.0, 0.0, -9.331533933212872e-06, 9.750010452442615e-06, 0.0, 0.0, 7.291785464543493, 0.0, 0.0, 0.0, 0.0, 0.0, 0.0, 1e-07]
---
header: 
  seq: 85
  stamp: 
    secs: 1624875203
    nsecs: 239774942
  frame_id: "/world"
pose: 
  pose: 
    position: 
      x: -0.0360141124574
      y: 0.0790400687962
      z: 0.0
    orientation: 
      x: 0.0
      y: 0.000293510242743
      z: 0.0
      w: 0.999999956926
  covariance: [6.978099933885809, -1.4952354418531818e-08, 0.0, 0.0, -1.0655198054753374e-05, 0.0, -1.4952354418531775e-08, 6.9780999311261, 0.0, 0.0, 9.98428926432431e-06, 0.0, 0.0, 0.0, 1e-07, 0.0, 0.0, 0.0, 0.0, 0.0, 0.0, 1e-07, 0.0, 0.0, -1.0655198054753369e-05, 9.98428926432431e-06, 0.0, 0.0, 6.951495230131825, 0.0, 0.0, 0.0, 0.0, 0.0, 0.0, 1e-07]
---
header: 
  seq: 86
  stamp: 
    secs: 1624875203
    nsecs: 319755077
  frame_id: "/world"
pose: 
  pose: 
    position: 
      x: -0.0355504228923
      y: 0.077667870848
      z: 0.0
    orientation: 
      x: 0.0
      y: 0.000376245096193
      z: 0.0
      w: 0.99999992922
  covariance: [7.504243794219253, -1.2935522286394913e-08, 0.0, 0.0, -1.1915271432441385e-05, 0.0, -1.2935522286394876e-08, 7.5042437918469505, 0.0, 0.0, 1.1468752133489334e-05, 0.0, 0.0, 0.0, 1e-07, 0.0, 0.0, 0.0, 0.0, 0.0, 0.0, 1e-07, 0.0, 0.0, -1.1915271432441378e-05, 1.1468752133489331e-05, 0.0, 0.0, 7.481082809492836, 0.0, 0.0, 0.0, 0.0, 0.0, 0.0, 1e-07]
---
header: 
  seq: 87
  stamp: 
    secs: 1624875203
    nsecs: 399734974
  frame_id: "/world"
pose: 
  pose: 
    position: 
      x: -0.0349862402678
      y: 0.0739927356118
      z: 0.0
    orientation: 
      x: 0.0
      y: 0.000607947744483
      z: 0.0
      w: 0.9999998152
  covariance: [7.713897496531171, -1.5901087807584802e-08, 0.0, 0.0, -1.8105505661713887e-05, 0.0, -1.590108780758476e-08, 7.713897493613873, 0.0, 0.0, 1.4801147127398404e-05, 0.0, 0.0, 0.0, 1e-07, 0.0, 0.0, 0.0, 0.0, 0.0, 0.0, 1e-07, 0.0, 0.0, -1.8105505661713887e-05, 1.4801147127398399e-05, 0.0, 0.0, 7.685198230770616, 0.0, 0.0, 0.0, 0.0, 0.0, 0.0, 1e-07]
---
header: 
  seq: 88
  stamp: 
    secs: 1624875203
    nsecs: 479762077
  frame_id: "/world"
pose: 
  pose: 
    position: 
      x: -0.0347605880696
      y: 0.0701045180516
      z: 0.0
    orientation: 
      x: 0.0
      y: 0.000505360135904
      z: 0.0
      w: 0.999999872306
  covariance: [7.101440844022547, -1.419990563435143e-08, 0.0, 0.0, -1.3402881791117292e-05, 0.0, -1.4199905634351396e-08, 7.101440841400693, 0.0, 0.0, 1.0734608052494551e-05, 0.0, 0.0, 0.0, 1e-07, 0.0, 0.0, 0.0, 0.0, 0.0, 0.0, 1e-07, 0.0, 0.0, -1.340288179111729e-05, 1.073460805249455e-05, 0.0, 0.0, 7.075585879977653, 0.0, 0.0, 0.0, 0.0, 0.0, 0.0, 1e-07]
---
header: 
  seq: 89
  stamp: 
    secs: 1624875203
    nsecs: 559773922
  frame_id: "/world"
pose: 
  pose: 
    position: 
      x: -0.0280624079141
      y: 0.0599279721018
      z: 0.0
    orientation: 
      x: 0.0
      y: 0.000294375979358
      z: 0.0
      w: 0.999999956671
  covariance: [8.33925833512028, -1.4982528737658184e-08, 0.0, 0.0, -1.0793047900885696e-05, 0.0, -1.4982528737658145e-08, 8.33925833234873, 0.0, 0.0, 9.173222276566887e-06, 0.0, 0.0, 0.0, 1e-07, 0.0, 0.0, 0.0, 0.0, 0.0, 0.0, 1e-07, 0.0, 0.0, -1.0793047900885698e-05, 9.173222276566883e-06, 0.0, 0.0, 8.311750911733496, 0.0, 0.0, 0.0, 0.0, 0.0, 0.0, 1e-07]
---
header: 
  seq: 90
  stamp: 
    secs: 1624875203
    nsecs: 639780045
  frame_id: "/world"
pose: 
  pose: 
    position: 
      x: -0.0335914191368
      y: 0.068271664857
      z: 0.0
    orientation: 
      x: 0.0
      y: 0.000299552264821
      z: 0.0
      w: 0.999999955134
  covariance: [10.039272299912353, -2.764161774070556e-08, 0.0, 0.0, -1.5610417568628978e-05, 0.0, -2.7641617740705484e-08, 10.039272294772228, 0.0, 0.0, 1.0877050641572195e-05, 0.0, 0.0, 0.0, 1e-07, 0.0, 0.0, 0.0, 0.0, 0.0, 0.0, 1e-07, 0.0, 0.0, -1.561041756862898e-05, 1.087705064157219e-05, 0.0, 0.0, 9.987924799465647, 0.0, 0.0, 0.0, 0.0, 0.0, 0.0, 1e-07]
---
header: 
  seq: 91
  stamp: 
    secs: 1624875203
    nsecs: 719793081
  frame_id: "/world"
pose: 
  pose: 
    position: 
      x: -0.0374426645985
      y: 0.0911020852136
      z: 0.0
    orientation: 
      x: 0.0
      y: 0.000196891644747
      z: 0.0
      w: 0.999999980617
  covariance: [9.639342151606105, -2.35957948317196e-08, 0.0, 0.0, -1.1672919145424246e-05, 0.0, -2.3595794831719533e-08, 9.63934214720756, 0.0, 0.0, 9.183323248734129e-06, 0.0, 0.0, 0.0, 1e-07, 0.0, 0.0, 0.0, 0.0, 0.0, 0.0, 1e-07, 0.0, 0.0, -1.167291914542425e-05, 9.183323248734127e-06, 0.0, 0.0, 9.59505936700601, 0.0, 0.0, 0.0, 0.0, 0.0, 0.0, 1e-07]
---
header: 
  seq: 92
  stamp: 
    secs: 1624875203
    nsecs: 799793005
  frame_id: "/world"
pose: 
  pose: 
    position: 
      x: -0.0375681665693
      y: 0.0913249069635
      z: 0.0
    orientation: 
      x: 0.0
      y: 0.000226810757925
      z: 0.0
      w: 0.999999974278
  covariance: [9.482085923006688, -2.6060272628416725e-08, 0.0, 0.0, -9.934435716555884e-06, 0.0, -2.606027262841666e-08, 9.48208591814944, 0.0, 0.0, 9.88806944555719e-06, 0.0, 0.0, 0.0, 1e-07, 0.0, 0.0, 0.0, 0.0, 0.0, 0.0, 1e-07, 0.0, 0.0, -9.934435716555889e-06, 9.888069445557187e-06, 0.0, 0.0, 9.432571381436997, 0.0, 0.0, 0.0, 0.0, 0.0, 0.0, 1e-07]
---
header: 
  seq: 93
  stamp: 
    secs: 1624875203
    nsecs: 879812002
  frame_id: "/world"
pose: 
  pose: 
